City_id,City,Cloudiness,Country,Date,Humidity,latitude,longitude,Max temp,Wind Speed
0,Busselton,35,AU,1584490087,92,-33.65,115.33,287.04,7.81
1,Lagoa,0,PT,1584490087,80,39.05,-27.98,290.14,7.13
2,Butaritari,0,KI,1584490087,75,3.07,172.79,301.68,5.67
3,Ushuaia,40,AR,1584490087,41,-54.8,-68.3,287.15,7.2
4,Kahului,75,US,1584490087,69,20.89,-156.47,297.15,13.4
5,Jamestown,1,US,1584489849,74,42.1,-79.24,278.15,4.1
6,Rikitea,4,PF,1584490088,78,-23.12,-134.97,300.21,5.32
7,Kapaa,90,US,1584490088,94,22.08,-159.32,296.15,3.1
8,Deputatsky,33,RU,1584490088,90,69.3,139.9,245.51,2.99
9,Beringovskiy,21,RU,1584490089,84,63.05,179.32,273.65,6.0
10,Nizhniy Chir,0,RU,1584490089,64,48.36,43.09,275.21,2.01
11,Mataura,1,NZ,1584490089,74,-46.19,168.86,287.04,2.24
12,Las Guáranas,75,DO,1584490089,78,19.19,-70.21,298.15,4.1
13,Carnarvon,100,AU,1584490090,68,-24.87,113.63,295.15,6.2
14,Castro,0,BR,1584490004,97,-24.79,-50.01,291.71,2.64
15,Ostrovnoy,4,RU,1584490090,96,68.05,39.51,264.69,5.94
16,Bonavista,62,CA,1584490090,70,48.65,-53.11,270.42,10.47
17,Barcelos,0,PT,1584489902,71,41.54,-8.62,287.59,3.6
18,Punta Arenas,75,CL,1584490091,54,-53.15,-70.92,286.15,10.8
19,Flin Flon,40,CA,1584490091,38,54.77,-101.86,259.15,4.1
20,Vestmannaeyjar,52,IS,1584489797,79,63.44,-20.27,274.18,4.64
21,Faya,40,SA,1584490091,87,18.39,42.45,290.15,4.6
22,Mar del Plata,100,AR,1584490014,88,-38.0,-57.56,293.15,1.5
23,Bredasdorp,27,ZA,1584490092,77,-34.53,20.04,292.15,3.1
24,Comodoro Rivadavia,0,AR,1584489862,77,-45.87,-67.5,289.15,6.2
25,Tazovsky,100,RU,1584490092,95,67.47,78.7,266.44,4.78
26,Tottori-shi,75,JP,1584490092,93,35.5,134.23,281.15,1.0
27,Fortuna,90,US,1584490093,87,40.6,-124.16,282.15,5.1
28,Sokołów Podlaski,73,PL,1584490093,73,52.41,22.25,279.81,2.08
29,Cervo,69,ES,1584490093,1,43.67,-7.41,285.93,0.64
30,Ulan-Ude,20,RU,1584490094,42,51.83,107.61,271.15,10.0
31,Tasiilaq,100,GL,1584489912,72,65.61,-37.64,261.15,4.32
32,San Fernando del Valle de Catamarca,68,AR,1584490094,69,-28.47,-65.79,300.93,1.34
33,Cherskiy,100,RU,1584490094,93,68.75,161.3,257.01,6.16
34,Galle,100,LK,1584490095,75,6.04,80.22,300.22,7.71
35,Kazachinskoye,100,RU,1584490095,82,57.7,93.28,267.43,5.03
36,Pemba,40,MZ,1584490095,88,-12.97,40.52,299.15,2.6
37,Puerto Ayora,20,EC,1584490095,62,-0.74,-90.35,302.15,4.1
38,Arkhara,98,RU,1584490095,96,49.42,130.08,269.43,2.73
39,Arraial do Cabo,90,BR,1584490095,100,-22.97,-42.03,295.15,3.1
40,Qaanaaq,98,GL,1584489863,59,77.48,-69.36,244.34,2.71
41,Ponta Delgada,20,PT,1584489867,82,37.73,-25.67,286.15,1.75
42,Port Hardy,5,CA,1584490096,66,50.7,-127.42,282.15,3.6
43,Vredendal,8,ZA,1584490096,97,-31.67,18.5,286.24,1.42
44,San Patricio,40,MX,1584490097,78,19.22,-104.7,301.15,5.1
45,Kampene,100,CD,1584490097,98,-3.6,26.67,293.31,0.74
46,Urubichá,93,BO,1584490097,74,-15.38,-62.95,299.59,0.83
47,Iquique,17,CL,1584489893,64,-20.22,-70.14,296.15,7.7
48,Norman Wells,75,CA,1584489850,79,65.28,-126.83,269.15,2.6
49,Chicama,75,PE,1584490063,83,-7.84,-79.15,296.15,4.1
50,Port Elizabeth,0,ZA,1584490098,64,-33.92,25.57,294.15,3.6
51,Boyabat,38,TR,1584490098,79,41.47,34.77,269.79,1.09
52,Hermanus,2,ZA,1584489834,93,-34.42,19.23,290.37,0.51
53,Vanderhoof,6,CA,1584490099,71,54.02,-124.02,275.18,1.14
54,Nanortalik,17,GL,1584490089,55,60.14,-45.24,266.36,4.88
55,Yellowknife,75,CA,1584490099,64,62.46,-114.35,256.48,2.6
56,Lázaro Cárdenas,0,MX,1584490099,67,17.96,-102.2,300.18,3.47
57,Shache,100,CN,1584490099,26,38.42,77.24,281.97,1.46
58,Port Alfred,24,ZA,1584490100,93,-33.59,26.89,291.48,3.57
59,Coxim,100,BR,1584489902,74,-18.51,-54.76,299.31,1.21
60,Pemangkat,13,ID,1584490026,93,1.17,108.97,297.73,2.86
61,Katsuura,20,JP,1584490100,54,35.13,140.3,286.15,4.6
62,Barrow,1,US,1584490100,85,71.29,-156.79,261.15,5.7
63,Hasaki,20,JP,1584490100,50,35.73,140.83,285.93,4.6
64,Chokurdakh,100,RU,1584490051,92,70.63,147.92,251.43,6.61
65,Tiksi,89,RU,1584490101,88,71.69,128.87,238.23,3.53
66,Murakami,40,JP,1584490101,87,38.23,139.48,280.15,5.1
67,Hobart,75,AU,1584489900,49,-42.88,147.33,294.15,4.6
68,Lorengau,100,PG,1584489992,76,-2.02,147.27,301.62,3.38
69,East London,66,ZA,1584489913,82,-33.02,27.91,294.0,5.03
70,Cape Town,8,ZA,1584490102,88,-33.93,18.42,292.59,4.6
71,Kosa,62,RU,1584490102,96,59.94,55.0,265.23,2.25
72,Kisi,32,NG,1584490102,68,9.08,3.85,300.55,2.49
73,Half Moon Bay,90,US,1584490103,71,37.46,-122.43,287.15,3.1
74,Port-Cartier,90,CA,1584490103,100,50.03,-66.87,270.93,7.2
75,Cassilândia,58,BR,1584490103,78,-19.11,-51.73,296.93,1.59
76,Geraldton,93,AU,1584490103,56,-28.77,114.6,293.15,4.6
77,Tromsø,75,NO,1584490104,94,69.65,18.96,276.15,8.7
78,Thompson,5,CA,1584490022,45,55.74,-97.86,258.15,5.7
79,Khatanga,89,RU,1584490104,87,71.97,102.5,247.23,3.58
80,Pandan,3,PH,1584490104,77,14.05,124.17,299.08,5.45
81,Tuktoyaktuk,90,CA,1584490105,84,69.45,-133.04,256.15,1.5
82,Priverno,75,IT,1584490105,93,41.47,13.19,284.82,1.0
83,Atuona,1,PF,1584490105,73,-9.8,-139.03,301.45,4.49
84,Kawambwa,87,ZM,1584490105,95,-9.79,29.08,291.02,0.9
85,Shimoda,20,JP,1584490106,47,34.67,138.95,288.15,5.1
86,Bila Krynytsya,0,UA,1584490106,86,50.64,29.47,272.15,1.0
87,Hilo,90,US,1584489848,83,19.73,-155.09,297.15,5.1
88,Ribeira Grande,12,PT,1584489883,88,38.52,-28.7,287.93,4.5
89,Husavik,90,IS,1584490106,95,66.04,-17.34,273.15,12.3
90,Mahuva,0,IN,1584490107,50,21.09,71.76,297.45,3.67
91,Souillac,40,MU,1584490088,88,-20.52,57.52,298.15,2.39
92,Hobyo,22,SO,1584490107,79,5.35,48.53,298.41,5.07
93,Klaksvík,43,FO,1584489965,67,62.23,-6.59,274.15,11.3
94,Cabedelo,48,BR,1584490108,83,-6.98,-34.83,300.15,3.1
95,Woodward,90,US,1584490108,100,36.43,-99.39,283.15,4.1
96,Bela,0,IN,1584490108,40,25.93,81.98,291.69,2.37
97,Kumul,17,CN,1584490108,23,42.8,93.45,277.71,1.17
98,Monrovia,75,LR,1584489829,94,6.3,-10.8,300.15,3.6
99,Faanui,100,PF,1584490022,70,-16.48,-151.75,301.72,3.07
100,Vaini,75,TO,1584490109,94,-21.2,-175.2,298.15,1.5
101,Kavieng,100,PG,1584490109,77,-2.57,150.8,301.36,5.95
102,Puerto Escondido,40,MX,1584489843,74,15.85,-97.07,303.15,4.1
103,Kavaratti,29,IN,1584490034,68,10.57,72.64,301.27,2.53
104,Constantine,75,DZ,1584489906,76,36.37,6.61,285.15,2.6
105,Culebra,40,PR,1584490110,74,18.3,-65.3,300.15,4.1
106,Lashio,0,MM,1584490110,59,22.93,97.75,289.11,0.94
107,Kayerkan,75,RU,1584490110,92,69.35,87.76,261.15,12.0
108,College,90,US,1584490111,50,64.86,-147.8,276.15,1.5
109,Nikolskoye,75,RU,1584489994,80,59.7,30.79,277.15,5.0
110,Narsaq,14,GL,1584490111,46,60.92,-46.05,261.15,3.1
111,Lata,0,PT,1584490112,87,40.16,-8.33,288.71,0.5
112,Tiznit Province,100,MA,1584490112,86,29.58,-9.5,281.54,5.78
113,Esmeraldas,75,BR,1584490035,83,-19.76,-44.31,294.15,2.6
114,Lompoc,75,US,1584490112,50,34.64,-120.46,287.15,2.1
115,Porto-Novo,40,BJ,1584489844,88,6.5,2.6,301.15,5.1
116,George Town,20,MY,1584489834,83,5.41,100.34,299.15,2.6
117,Batagay-Alyta,100,RU,1584490113,96,67.8,130.41,249.73,0.79
118,Avarua,100,CK,1584490114,88,-21.21,-159.78,300.15,7.7
119,Baoshan,87,CN,1584490114,81,46.56,131.42,272.6,3.43
120,Bethel,75,US,1584489829,66,41.37,-73.41,284.26,4.1
121,Cabo San Lucas,75,MX,1584490083,64,22.89,-109.91,297.04,3.6
122,Talnakh,75,RU,1584490115,92,69.49,88.4,261.15,12.0
123,Lebu,0,CL,1584490115,83,-37.62,-73.65,287.21,3.66
124,Conde,30,BR,1584490115,83,-7.26,-34.91,300.15,3.1
125,Hithadhoo,65,MV,1584490115,76,-0.6,73.08,302.3,5.69
126,Albany,75,US,1584489989,56,42.6,-73.97,280.93,3.6
127,Manaus,75,BR,1584490116,74,-3.1,-60.02,302.15,2.1
128,Nagato,75,JP,1584490116,87,34.38,131.2,287.04,0.5
129,Miranda,40,CO,1584490116,61,3.25,-76.23,300.15,5.1
130,Suntar,100,RU,1584490116,93,62.14,117.63,254.39,3.5
131,Nishihara,75,JP,1584490116,68,26.18,127.76,292.15,2.6
132,Bluff,24,NZ,1584490117,74,-46.6,168.33,287.04,2.24
133,Saint George,94,US,1584490117,43,37.1,-113.58,288.15,3.6
134,Oruzgan,0,AF,1584490117,71,32.83,66.0,279.89,2.97
135,Khonsa,0,IN,1584490117,73,27.02,95.57,287.04,1.84
136,Itoman,75,JP,1584490117,68,26.12,127.67,292.15,2.6
137,Westport,20,US,1584490093,75,41.14,-73.36,284.82,2.6
138,Tshikapa,100,CD,1584490118,95,-6.42,20.8,294.35,1.07
139,Longyearbyen,20,SJ,1584490118,68,78.22,15.64,245.15,2.6
140,Kenai,90,US,1584490118,79,60.55,-151.26,272.04,2.6
141,Dinghaicun,75,CN,1584490118,93,26.28,119.79,289.15,1.0
142,Jarabacoa,75,DO,1584490119,78,19.12,-70.64,298.15,4.1
143,Salinas,1,US,1584490111,76,36.68,-121.66,287.04,3.1
144,Grindavik,90,IS,1584490119,86,63.84,-22.43,273.15,9.8
145,Saint-Pierre,75,RE,1584490119,88,-21.34,55.48,297.15,3.1
146,Pevek,100,RU,1584490120,95,69.7,170.31,269.27,5.24
147,Oranjemund,0,NA,1584490120,94,-28.55,16.43,288.99,2.33
148,Provideniya,40,RU,1584490120,86,64.38,-173.3,272.15,9.0
149,Saskylakh,17,RU,1584490019,79,71.92,114.08,243.32,4.6
150,Ponta do Sol,40,PT,1584490120,67,32.67,-17.1,288.15,9.8
151,Iqaluit,90,CA,1584490041,85,63.75,-68.51,264.15,5.7
152,Ancud,13,CL,1584490121,76,-41.87,-73.82,286.15,3.1
153,New Norfolk,75,AU,1584490086,49,-42.78,147.06,295.15,5.1
154,Wajid,29,SO,1584490121,77,3.81,43.25,295.98,7.4
155,Orlovka,100,RU,1584490121,65,44.69,44.17,274.11,2.24
156,Ilulissat,96,GL,1584489965,59,69.22,-51.1,257.15,9.8
157,Mendi,100,PG,1584490122,67,-6.18,143.65,292.63,1.18
158,Santiago,0,CL,1584489444,40,-33.46,-70.65,296.15,3.1
159,Kaiyuan,80,CN,1584490122,91,23.7,103.3,287.64,4.32
160,Cambuí,1,BR,1584490084,88,-22.61,-46.06,293.71,1.93
161,Mahébourg,40,MU,1584490123,88,-20.41,57.7,298.15,2.39
162,Clyde River,90,CA,1584490123,68,70.47,-68.59,246.15,5.7
163,Tuatapere,18,NZ,1584490123,74,-46.13,167.68,287.04,2.24
164,Alice Springs,0,AU,1584489840,32,-23.7,133.88,300.15,4.6
165,Buala,8,SB,1584490123,72,-8.14,159.59,302.23,1.8
166,Dingle,22,PH,1584490124,79,11.0,122.67,298.5,5.47
167,Yangi Marg`ilon,72,UZ,1584490124,49,40.43,71.72,285.15,3.1
168,Zheleznodorozhnyy,26,RU,1584490124,59,55.75,38.0,276.15,3.0
169,Palmares do Sul,63,BR,1584490124,80,-30.26,-50.51,294.96,6.07
170,Clearwater,1,US,1584489924,83,27.97,-82.8,299.15,1.44
171,Bengkulu,69,ID,1584490125,90,-3.8,102.27,296.71,1.68
172,Auki,0,SB,1584490125,73,-8.77,160.7,302.0,1.9
173,Leningradskiy,100,RU,1584490125,79,69.38,178.42,271.61,3.32
174,Seymchan,97,RU,1584490125,83,62.88,152.43,257.04,0.65
175,Harper,84,LR,1584490126,95,4.38,-7.72,298.31,1.51
176,Kachīry,48,KZ,1584490126,91,53.07,76.1,267.28,4.9
177,Centralia,1,US,1584490126,30,46.72,-122.95,288.71,2.6
178,Lüderitz,0,NA,1584490126,82,-26.65,15.16,289.15,2.6
179,Ruteng,53,ID,1584490127,76,-8.61,120.47,296.99,0.39
180,Hong Kong,40,HK,1584489932,73,22.29,114.16,295.37,4.1
181,Itarema,86,BR,1584490127,88,-2.92,-39.92,297.81,1.7
182,Saint-Philippe,75,RE,1584490127,88,-21.36,55.77,297.15,3.1
183,Kaitangata,2,NZ,1584490128,72,-46.28,169.85,282.71,2.28
184,Gimli,100,CA,1584490128,60,50.63,-96.99,268.15,2.54
185,Mets Masrik,66,AM,1584490128,92,40.22,45.77,267.27,1.99
186,Praia da Vitória,20,PT,1584490128,77,38.73,-27.07,289.15,6.24
187,Port-Gentil,40,GA,1584490128,83,-0.72,8.78,302.15,4.6
188,Ambilobe,65,MG,1584490129,91,-13.2,49.05,297.0,1.17
189,Hambantota,100,LK,1584489964,80,6.12,81.12,299.12,4.67
190,Umm Kaddadah,31,SD,1584490129,17,13.6,26.69,294.89,6.68
191,Bud,75,US,1584490129,53,39.45,-86.18,284.26,0.78
192,Dalen,79,NL,1584490129,60,52.7,6.76,282.04,3.6
193,Yerbogachën,26,RU,1584490130,94,61.28,108.01,250.02,1.42
194,Aklavik,75,CA,1584490130,67,68.22,-135.01,268.15,1.0
195,Gwanda,99,ZW,1584490130,83,-20.93,29.0,290.69,4.57
196,Bull Savanna,43,JM,1584490130,80,17.89,-77.59,294.79,1.85
197,Saint Paul Harbor,1,US,1584490130,70,57.79,-152.41,280.15,6.2
198,Laas,15,IT,1584490131,86,46.62,10.7,280.37,0.5
199,Isfana,98,KG,1584489964,66,39.84,69.53,285.15,2.0
200,Ndélé,19,CF,1584490131,22,8.41,20.65,299.31,2.19
201,Monclova,67,MX,1584490131,40,26.9,-101.42,303.71,1.79
202,Paamiut,96,GL,1584490131,53,61.99,-49.67,261.88,5.95
203,Chui,100,UY,1584490132,83,-33.7,-53.46,293.02,4.44
204,Sabang,60,ID,1584490132,74,5.89,95.32,301.63,5.76
205,Taoudenni,92,ML,1584490132,11,22.68,-3.98,296.89,3.39
206,Upernavik,30,GL,1584490132,51,72.79,-56.15,248.67,2.83
207,Isangel,75,VU,1584490132,70,-19.55,169.27,303.15,3.1
208,Samarai,38,PG,1584490133,74,-10.62,150.67,301.14,2.49
209,Banjarmasin,8,ID,1584490133,86,-3.32,114.59,298.97,3.37
210,Mossamedes,100,AO,1584490133,80,-15.2,12.15,296.19,1.86
211,Novo Aripuanã,100,BR,1584490134,93,-5.12,-60.38,297.93,1.09
212,Champerico,75,GT,1584490134,55,14.3,-91.92,304.15,4.1
213,Chipoka,76,MW,1584490134,76,-13.99,34.52,295.53,4.3
214,Ouégoa,33,NC,1584490135,61,-20.35,164.43,301.19,1.94
215,Labuhan,88,ID,1584490135,89,-6.88,112.21,298.56,1.19
216,Petropavlovsk-Kamchatskiy,100,RU,1584489853,45,53.05,158.65,270.15,6.0
217,Rocha,100,UY,1584490135,77,-34.48,-54.33,291.36,4.71
218,Lavrentiya,100,RU,1584490013,92,65.58,-171.0,272.48,5.25
219,Mount Isa,0,AU,1584490136,35,-20.73,139.5,302.15,5.7
220,Naze,98,JP,1584490136,63,28.37,129.48,291.15,2.1
221,Bathsheba,40,BB,1584490136,69,13.22,-59.52,299.15,4.6
222,Graciano Sánchez,40,MX,1584490136,33,23.92,-99.28,305.15,8.2
223,Dikson,92,RU,1584490136,100,73.51,80.55,250.6,2.88
224,Nome,90,US,1584489843,92,64.5,-165.41,272.59,4.6
225,Aromashevo,95,RU,1584490137,89,56.86,68.64,269.64,5.52
226,Constitución,2,CL,1584490137,91,-35.33,-72.42,286.19,3.59
227,Vila Praia de Âncora,0,PT,1584490137,76,41.81,-8.85,288.71,1.0
228,Codrington,100,AU,1584490137,57,-38.27,141.97,292.94,6.31
229,Solnechnyy,100,RU,1584490138,92,50.72,136.63,269.58,1.39
230,Alofi,40,NU,1584490138,70,-19.06,-169.92,304.15,6.2
231,Kutum,0,SD,1584490138,23,14.2,24.67,288.03,1.74
232,Kambove,100,CD,1584490138,98,-10.88,26.6,290.41,1.16
233,Upington,47,ZA,1584490138,73,-28.45,21.26,295.15,4.1
234,Viedma,6,AR,1584490139,81,-40.81,-63.0,290.0,6.19
235,Ila,100,NO,1584490139,64,63.43,10.37,277.15,7.2
236,Portland,1,US,1584490045,29,45.52,-122.68,289.82,2.6
237,Marsabit,75,KE,1584490139,60,2.33,37.99,299.12,7.03
238,Riohacha,20,CO,1584490139,69,11.54,-72.91,300.15,6.2
239,Rio Grande,83,BR,1584490073,78,-32.03,-52.1,295.37,2.24
240,White Rock,1,CA,1584489981,75,49.02,-122.8,287.04,4.42
241,Kolondiéba,94,ML,1584490140,32,11.09,-6.89,303.87,2.8
242,Bambous Virieux,40,MU,1584490140,88,-20.34,57.76,298.15,4.54
243,Tortosa,41,ES,1584490140,87,40.81,0.52,286.48,2.1
244,Bilibino,100,RU,1584490141,92,68.05,166.44,265.46,3.39
245,Pisco,90,PE,1584490141,73,-13.7,-76.22,296.15,8.2
246,Praia,75,CV,1584489842,68,14.92,-23.51,294.15,7.7
247,Montilla,26,ES,1584490141,67,37.59,-4.64,288.15,5.1
248,Yulara,0,AU,1584490141,28,-25.24,130.99,301.15,4.6
249,Ballymena,20,GB,1584489857,93,54.86,-6.28,279.15,4.6
250,Tilichiki,100,RU,1584490142,86,60.47,166.1,264.42,3.45
251,Crixás,63,BR,1584490142,90,-14.55,-49.97,296.51,0.51
252,Tigil',100,RU,1584490142,80,57.8,158.67,263.69,0.9
253,Vila Velha,40,BR,1584489844,83,-20.33,-40.29,300.15,2.1
254,Meulaboh,100,ID,1584490026,73,4.14,96.13,299.76,2.13
255,Jaciara,19,BR,1584490143,84,-15.97,-54.97,296.66,0.93
256,Bāfq,19,IR,1584490143,36,31.61,55.41,289.73,4.12
257,Haapiti,40,PF,1584490143,66,-17.57,-149.87,305.15,3.6
258,Prachuap Khiri Khan,100,TH,1584490143,77,11.82,99.78,300.16,5.26
259,Letterkenny,100,IE,1584490144,90,54.95,-7.73,275.92,2.62
260,Kulhudhuffushi,68,MV,1584490144,78,6.62,73.07,301.86,8.0
261,Hutchinson,90,US,1584490097,76,38.06,-97.93,284.26,4.6
262,Nekhayevskiy,9,RU,1584490144,57,50.41,41.76,273.86,1.34
263,Kanniyākumāri,23,IN,1584490144,80,8.08,77.57,300.69,10.97
264,Nacala,32,MZ,1584490145,97,-14.54,40.67,295.12,1.95
265,Asău,80,RO,1584490145,65,46.43,26.4,280.37,2.1
266,Cimitarra,56,CO,1584490145,74,6.31,-73.95,299.49,1.62
267,Senador José Porfírio,54,BR,1584490145,88,-2.59,-51.95,298.75,2.21
268,Bamako,73,ML,1584489662,24,12.65,-8.0,301.15,1.5
269,Gariadhar,0,IN,1584490146,31,21.53,71.58,293.56,3.21
270,Kirakira,77,SB,1584489942,69,-10.45,161.92,302.34,1.55
271,Morant Bay,20,JM,1584490146,54,17.88,-76.41,302.15,8.2
272,Roanoke,90,US,1584489960,82,37.27,-79.94,290.15,3.6
273,Atikokan,95,CA,1584490146,82,48.76,-91.62,267.08,1.95
274,Sitka,40,US,1584490147,65,57.05,-135.33,280.15,7.2
275,Ahipara,0,NZ,1584490147,55,-35.17,173.17,290.23,5.37
276,Okhotsk,0,RU,1584490147,78,59.38,143.3,258.78,2.31
277,Esperance,65,AU,1584490147,82,-33.87,121.9,288.15,6.2
278,Pangnirtung,100,CA,1584490077,80,66.15,-65.71,257.95,7.66
279,Aykhal,0,RU,1584490148,68,66.0,111.5,246.15,2.0
280,Eydhafushi,94,MV,1584490148,78,5.1,73.07,302.18,7.87
281,Chibuto,0,MZ,1584490148,85,-24.69,33.53,291.52,1.5
282,Vardø,75,NO,1584489919,92,70.37,31.11,269.15,3.6
283,Akdepe,100,TM,1584490148,43,42.06,59.38,286.15,6.2
284,La Ronge,40,CA,1584490149,42,55.1,-105.28,259.15,3.1
285,Malakal,8,SS,1584490149,14,9.53,31.66,300.49,4.16
286,Olafsvik,100,IS,1584490149,80,64.89,-23.71,270.76,16.95
287,Kyrenia,20,CY,1584490149,65,35.34,33.32,281.15,4.1
288,Hukuntsi,45,BW,1584490149,54,-24.0,21.75,295.03,4.92
289,Teeli,100,RU,1584490150,75,51.03,90.23,269.14,1.21
290,Shenjiamen,90,CN,1584490150,80,29.96,122.3,286.52,1.71
291,Nioro,0,GM,1584490150,43,13.35,-15.75,296.59,4.92
292,Kifrī,67,IQ,1584490150,62,34.7,44.97,291.24,6.16
293,Kousséri,91,CM,1584490150,7,12.08,15.03,302.15,5.7
294,Peno,94,RU,1584490151,84,56.93,32.74,272.93,3.88
295,Cheremkhovo,0,RU,1584490151,91,53.16,103.07,261.11,0.77
296,Vila Franca do Campo,20,PT,1584490151,82,37.72,-25.43,286.15,1.75
297,Atbasar,7,KZ,1584490151,93,51.8,68.33,265.07,4.55
298,Beloslav,0,BG,1584490152,71,43.18,27.7,275.93,2.6
299,Cidreira,96,BR,1584490152,79,-30.18,-50.21,296.25,9.99
300,Tacna,90,PE,1584490153,83,-18.01,-70.25,297.15,4.1
301,Marabu,75,MY,1584489987,100,4.41,114.01,297.15,2.83
302,New Ulm,75,US,1584490153,56,44.31,-94.46,278.15,2.6
303,Santa Isabel Rio Negro,100,BR,1584490153,96,-0.41,-65.02,297.92,1.19
304,Walvis Bay,0,NA,1584489996,95,-22.96,14.51,289.82,2.91
305,Ţahţā,0,EG,1584490154,42,26.77,31.5,290.15,8.2
306,Bowen,13,AU,1584490154,65,-20.02,148.23,300.93,6.7
307,Jumla,0,NP,1584490154,51,29.27,82.18,272.1,2.49
308,Sultānpur,0,IN,1584490154,44,26.27,82.07,290.74,2.42
309,Carbondale,1,US,1584490015,71,37.73,-89.22,285.93,3.6
310,Arcos,76,BR,1584489987,90,-20.28,-45.54,293.13,1.2
311,Andenes,79,NO,1584490155,71,69.31,16.12,275.15,6.7
312,Torbay,75,CA,1584489929,73,47.67,-52.73,270.93,10.8
313,Udachny,0,RU,1584490155,68,66.42,112.4,246.15,2.0
314,Río Gallegos,24,AR,1584490155,50,-51.62,-69.22,288.15,7.2
315,Dzilam González,19,MX,1584490156,82,21.28,-88.93,298.38,13.18
316,Caravelas,0,BR,1584490156,82,-17.71,-39.25,300.43,4.76
317,Denpasar,20,ID,1584489953,83,-8.65,115.22,301.15,1.5
318,Kralendijk,0,BQ,1584490156,69,12.15,-68.27,300.15,4.6
319,Kīhei,75,US,1584490156,69,20.79,-156.47,297.15,13.4
320,Dongsheng,85,CN,1584490157,23,39.82,109.98,279.31,11.03
321,Zhangaözen,100,KZ,1584490157,81,43.3,52.8,276.62,8.03
322,Lisala,92,CD,1584490157,94,2.15,21.52,295.53,1.28
323,Raudeberg,100,NO,1584490157,80,61.99,5.14,278.15,6.7
324,Pahlgām,70,IN,1584490158,68,34.03,75.33,263.47,3.9
325,Rawson,0,AR,1584490147,65,-43.3,-65.1,288.95,3.78
326,São Filipe,71,CV,1584490158,77,14.9,-24.5,292.77,7.5
327,‘Ewa Beach,90,US,1584490158,94,21.32,-158.01,296.15,1.5
328,Tautira,40,PF,1584490159,66,-17.73,-149.15,305.15,3.6
329,Ust-Maya,86,RU,1584490159,92,60.42,134.53,260.15,1.01
330,Nador,75,MA,1584490159,93,35.17,-2.93,289.15,4.6
331,Orcopampa,99,PE,1584490159,97,-15.27,-72.34,276.37,2.82
332,Taseyevo,100,RU,1584490159,84,57.22,94.9,266.66,5.32
333,Grand Forks,1,US,1584490160,73,47.93,-97.03,272.15,2.6
334,Berlevåg,86,NO,1584490050,81,70.86,29.09,272.02,4.9
335,Salisbury,98,GB,1584490093,100,51.07,-1.8,283.71,6.7
336,Manakara,42,MG,1584490160,96,-22.13,48.02,295.69,2.03
337,Hammerfest,75,NO,1584490161,92,70.66,23.68,269.15,4.1
338,Broome,90,US,1584490161,60,42.25,-75.83,279.26,4.6
339,Abnūb,0,EG,1584490161,38,27.27,31.15,289.15,7.7
340,Khani,90,GE,1584490161,93,41.96,42.96,276.15,1.0
341,Graham,1,US,1584490162,47,47.05,-122.29,287.04,1.26
342,Shitanjing,26,CN,1584490162,5,39.23,106.34,279.26,0.89
343,Neuquén,85,AR,1584490162,33,-38.95,-68.06,297.15,4.1
344,Karlshamn,56,SE,1584490163,93,56.17,14.86,281.15,3.6
345,Mogadishu,4,SO,1584490163,81,2.04,45.34,301.3,8.73
346,Vangaindrano,37,MG,1584490163,97,-23.35,47.6,293.73,1.88
347,Lufilufi,68,WS,1584490163,70,-13.87,-171.6,300.55,3.27
348,Kompaniyivka,72,UA,1584490164,72,48.25,32.21,273.74,2.8
349,Kiryat Gat,75,IL,1584490164,87,31.61,34.76,286.15,4.6
350,Zalesovo,99,RU,1584490164,84,53.99,84.74,271.49,5.98
351,Warri,100,NG,1584490164,89,5.52,5.75,299.6,2.22
352,Hurricane,94,US,1584490040,43,37.18,-113.29,288.15,3.6
353,Chernyshevskiy,86,RU,1584490165,96,63.01,112.47,249.73,1.88
354,Pacific Grove,75,US,1584490165,66,36.62,-121.92,287.04,4.1
355,Sharjah city,0,AE,1584489896,72,25.36,55.4,298.71,1.0
356,San Vicente,58,AR,1584490165,75,-26.62,-54.13,295.89,1.35
357,Severo-Kuril'sk,100,RU,1584489939,85,50.68,156.12,267.22,10.5
358,Licheng,75,CN,1584490166,88,23.3,113.83,295.37,0.71
359,Dudinka,75,RU,1584490166,92,69.41,86.18,261.15,12.0
360,Tomatlán,0,MX,1584490166,51,19.93,-105.25,300.67,3.08
361,Sladkovo,58,RU,1584490167,90,55.53,70.34,270.48,8.03
362,Conceição da Barra,0,BR,1584490167,78,-18.59,-39.73,300.52,5.95
363,Doha,0,QA,1584489976,73,25.29,51.53,296.48,3.6
364,Egvekinot,100,RU,1584490167,88,66.32,-179.17,268.62,4.96
365,Portales,90,US,1584490168,82,34.19,-103.33,290.37,4.6
366,Ugoofaaru,80,MV,1584490168,78,5.67,73.0,302.11,8.24
367,Vostok,37,RU,1584490168,87,46.49,135.88,269.67,2.46
368,Maceió,75,BR,1584490081,88,-9.67,-35.74,299.15,1.0
369,Ayan,37,RU,1584490169,83,56.45,138.17,265.12,1.24
370,Ust-Kuyga,60,RU,1584490169,90,70.02,135.6,244.95,0.45
371,Asmara,18,ER,1584490169,56,15.33,38.93,292.5,0.72
372,Sandīla,0,IN,1584490169,87,27.08,80.52,289.15,1.0
373,Sørland,100,NO,1584490169,70,67.67,12.69,278.35,12.28
374,Yeppoon,20,AU,1584490170,57,-23.13,150.73,298.15,5.7
375,Mackenzie,75,CA,1584490170,40,55.3,-123.17,276.15,3.1
376,Kirovskiy,17,RU,1584490170,85,45.09,133.51,271.66,2.49
377,São João de Pirabas,100,BR,1584490170,98,-0.77,-47.18,297.35,0.98
378,Kruisfontein,0,ZA,1584490140,83,-34.0,24.73,290.09,3.75
379,Abu Kamal,100,SY,1584490171,82,34.45,40.92,288.99,3.38
380,Pedersore,38,FI,1584490171,85,63.65,22.68,274.82,4.1
381,Dakar,0,SN,1584489942,88,14.69,-17.44,294.15,5.1
382,Banda Aceh,67,ID,1584490071,81,5.56,95.32,296.19,2.13
383,Koson,54,UZ,1584490172,76,39.04,65.58,285.15,3.1
384,Zlobin,69,HR,1584490172,80,45.29,14.65,281.48,2.01
385,The Valley,20,AI,1584490148,69,18.22,-63.06,299.26,3.1
386,Kemijärvi,100,FI,1584490172,92,66.71,27.43,273.19,5.13
387,Sioux Lookout,75,CA,1584490172,32,50.1,-91.92,269.15,4.6
388,Caldas Novas,8,BR,1584490173,82,-17.74,-48.62,294.84,1.04
389,Kieta,38,PG,1584490173,69,-6.22,155.63,302.03,1.15
390,Panjakent,53,TJ,1584490173,66,39.5,67.61,286.15,4.1
391,Koulamoutou,97,GA,1584490173,98,-1.13,12.47,295.66,0.95
392,Francistown,63,BW,1584490173,75,-21.17,27.51,291.87,5.46
393,Mbuji-Mayi,100,CD,1584490174,94,-6.15,23.6,294.21,3.43
394,Kuching,40,MY,1584490174,100,1.55,110.33,298.15,1.5
395,Tutóia,72,BR,1584490174,91,-2.76,-42.27,297.52,1.32
396,Pangkalanbuun,100,ID,1584490174,97,-2.68,111.62,296.9,1.39
397,Jatāra,0,IN,1584490174,29,25.02,79.05,292.52,0.98
398,Turaif,63,SA,1584490175,87,31.67,38.66,282.15,7.2
399,Hadrut,100,AZ,1584490175,96,39.52,47.03,272.02,1.91
400,Bukama,100,CD,1584490175,98,-9.2,25.85,294.32,0.49
401,Kabompo,100,ZM,1584490175,98,-13.59,24.2,290.56,1.45
402,Beroroha,1,MG,1584490176,87,-21.67,45.17,294.14,1.13
403,São João da Barra,75,BR,1584490087,88,-21.64,-41.05,297.15,6.2
404,Departamento de Maldonado,100,UY,1584490176,73,-34.67,-54.92,294.15,6.2
405,Santa Comba,0,ES,1584490176,87,43.03,-8.81,285.93,3.6
406,Ola,93,RU,1584490176,80,59.58,151.28,260.91,0.7
407,Resistencia,85,AR,1584489877,66,-27.46,-58.98,305.15,1.0
408,Brainerd,1,US,1584490177,55,46.36,-94.2,276.15,3.1
409,Derzhavīnsk,32,KZ,1584490177,94,51.1,66.32,264.89,4.99
410,‘Āhuimanu,90,US,1584490177,94,21.44,-157.84,296.15,1.5
411,Manbij,75,SY,1584490177,93,36.53,37.95,281.15,5.7
412,Ketchikan,1,US,1584490178,49,55.34,-131.65,281.15,8.7
413,Rumoi,82,JP,1584490178,79,43.93,141.64,276.81,5.14
414,Camacha,75,PT,1584490178,72,33.08,-16.33,288.15,9.3
415,Kholm,95,RU,1584490178,85,59.27,32.85,274.93,5.42
416,Cayenne,6,GF,1584490178,83,4.93,-52.33,299.15,1.0
417,Bac Giang,90,VN,1584490179,88,21.27,106.2,292.15,3.1
418,Biak,45,ID,1584490179,72,-0.91,122.88,300.15,1.72
419,Tongchuanshi,0,CN,1584490179,24,35.08,109.09,283.73,2.31
420,Izhma,87,RU,1584490179,83,65.01,53.91,269.46,4.32
421,Haines Junction,45,CA,1584490179,77,60.75,-137.51,269.53,1.37
422,Paragominas,51,BR,1584490166,98,-2.97,-47.48,296.47,1.53
423,Luang Prabang,0,LA,1584489961,85,19.89,102.13,293.5,0.36
424,Amapá,96,BR,1584490180,96,1.0,-52.0,295.72,1.51
425,Beloha,47,MG,1584490180,95,-25.17,45.05,292.3,2.59
426,Coihueco,0,CL,1584490181,33,-36.62,-71.83,297.15,3.6
427,Camopi,75,GF,1584490181,80,3.17,-52.32,298.14,2.43
428,Zinder,51,NE,1584490181,7,13.81,8.99,297.76,4.5
429,Huitziltepec,0,MX,1584490181,26,17.82,-99.47,307.59,0.45
430,Port Moresby,40,PG,1584490181,74,-9.44,147.18,302.15,4.1
431,Fort-Shevchenko,54,KZ,1584490182,67,44.51,50.26,274.85,6.33
432,Hualmay,100,PE,1584490058,70,-11.1,-77.61,296.07,2.74
433,Hopkinsville,90,US,1584490182,71,36.87,-87.49,286.15,2.1
434,Bubaque,30,GW,1584490182,72,11.28,-15.83,299.43,9.43
435,Narrabri,0,AU,1584490182,56,-30.32,149.78,295.93,1.5
436,Sorong,0,ID,1584489907,67,-0.88,131.25,301.6,1.13
437,Airai,0,TL,1584490183,67,-8.93,125.41,295.87,2.02
438,Kununurra,0,AU,1584490183,70,-15.77,128.73,303.15,1.5
439,Alta Floresta,100,BR,1584490184,93,-9.88,-56.09,296.77,0.62
440,Fujin,63,CN,1584490184,86,47.26,132.03,270.62,2.93
441,Sikasso,94,ML,1584490184,32,10.92,-7.0,303.87,2.8
442,Mount Gambier,90,AU,1584490184,35,-37.83,140.77,296.15,6.2
443,Taltal,0,CL,1584490185,89,-25.4,-70.48,288.17,1.41
444,Vanimo,59,PG,1584490185,74,-2.67,141.3,301.1,3.78
445,Tura,0,IN,1584490185,44,25.52,90.22,291.37,1.19
446,Mucurapo,20,TT,1584490185,69,10.67,-61.53,299.26,2.6
447,Prykolotne,71,UA,1584490186,64,50.16,37.35,273.64,1.46
448,Manta,75,EC,1584490186,78,-0.95,-80.73,301.15,4.1
449,Orichi,25,RU,1584490187,91,58.4,49.06,268.59,2.7
450,Williams Lake,5,CA,1584490187,30,52.14,-122.14,279.15,4.6
451,Atar,96,MR,1584490187,23,20.52,-13.05,292.41,3.66
452,Xi'an,33,CN,1584490187,26,34.26,108.93,285.93,2.23
453,Acapulco de Juárez,5,MX,1584490188,79,16.86,-99.89,302.15,6.2
454,Leh,100,IN,1584490188,76,34.17,77.58,260.69,1.27
455,Darhan,55,MN,1584490188,62,49.49,105.92,267.79,2.31
456,Khasan,10,RU,1584490188,60,42.43,130.64,277.97,0.84
457,Tabou,84,CI,1584490189,95,4.42,-7.35,298.31,1.51
458,Yar-Sale,41,RU,1584490189,81,66.83,70.83,260.67,5.68
459,Hofn,100,IS,1584490189,88,64.25,-15.21,276.09,0.9
460,Wajima,20,JP,1584490189,87,37.4,136.9,280.15,3.1
461,San Andrés,75,CO,1584489891,69,12.58,-81.7,301.15,6.7
462,Cairns,75,AU,1584490143,74,-16.92,145.77,299.15,5.7
463,Saldanha,0,ZA,1584490190,82,-33.01,17.94,290.15,3.1
464,Adrar,83,MR,1584490190,27,20.5,-10.07,292.92,4.99
465,Roboré,43,BO,1584490190,94,-18.33,-59.75,300.15,1.21
466,Morehead,1,US,1584490190,58,37.27,-87.18,286.15,1.5
467,Yumen,81,CN,1584490191,29,40.28,97.2,274.8,4.05
468,Mihijam,0,IN,1584490191,40,23.85,86.88,294.46,2.08
469,Muisne,75,EC,1584490191,83,0.6,-80.03,301.15,2.6
470,Mookane,0,BW,1584490191,72,-23.69,26.66,291.18,3.34
471,Vrangel',0,RU,1584490192,79,42.73,133.08,275.15,4.66
472,Tezu,14,IN,1584490192,51,27.92,96.17,289.49,1.16
473,Lábrea,56,BR,1584490192,94,-7.26,-64.8,297.68,0.85
474,Tokonou,88,GN,1584490192,66,9.65,-9.78,299.74,4.38
475,Cravo Norte,85,CO,1584490192,34,6.3,-70.2,304.85,3.19
476,Prabumulih,86,ID,1584490193,96,-3.45,104.25,297.2,1.05
477,Duma,32,CN,1584490193,25,34.77,108.14,279.15,1.32
478,Luganville,75,VU,1584490193,83,-15.53,167.17,302.15,2.1
479,Gulariyā,0,NP,1584490193,53,28.23,81.33,289.53,2.2
480,Mgandu,99,TZ,1584490193,97,-5.95,34.13,290.22,0.22
481,Gīdam,23,IN,1584490194,48,18.98,81.4,296.44,0.44
482,San Cristobal,40,VE,1584490194,58,7.77,-72.22,302.15,2.1
483,Sturgeon Falls,75,CA,1584490194,40,46.36,-79.93,274.26,5.7
484,Port Hedland,0,AU,1584490194,74,-20.32,118.57,302.15,1.5
485,Tarazá,51,CO,1584490194,77,7.58,-75.4,296.42,1.79
486,Oktyabr'skiy,87,RU,1584490195,94,54.48,53.47,272.68,3.02
487,Hayden,1,US,1584489903,31,47.77,-116.79,286.15,3.6
488,Florø,96,NO,1584490195,80,61.6,5.03,278.15,6.7
489,Brazzaville,75,CG,1584490195,83,-4.27,15.28,299.15,0.77
490,Sigmaringen,23,DE,1584490195,93,48.08,9.22,282.04,1.0
491,Nong’an,95,CN,1584490196,40,44.38,125.17,276.15,5.0
492,Bento Gonçalves,0,BR,1584490196,87,-29.17,-51.52,296.48,4.02
493,San Jose,75,US,1584489996,58,37.34,-121.89,287.04,6.2
494,Valsād,0,IN,1584490196,60,20.63,72.93,296.15,1.51
495,Northam,75,GB,1584490196,93,51.03,-4.22,284.26,6.2
496,Myrtle Beach,20,US,1584490197,87,33.69,-78.89,289.82,1.5
497,Port Macquarie,90,AU,1584490197,93,-31.43,152.92,295.93,2.6
498,Young,99,UY,1584490197,85,-32.68,-57.63,291.72,5.43
499,Nueva Helvecia,100,UY,1584490198,92,-34.3,-57.23,290.93,1.79
500,Santa Monica,20,US,1584489976,51,34.02,-118.49,290.15,3.6
501,Namatanai,100,PG,1584489925,71,-3.67,152.43,302.07,1.94
502,Auray,33,FR,1584490198,70,47.67,-2.99,282.04,2.1
503,Vilhena,100,BR,1584490199,94,-12.74,-60.15,296.15,2.1
504,Arrondissement de Saint-Denis,71,FR,1584490199,93,48.92,2.33,284.82,1.0
505,Port Lincoln,83,AU,1584490015,27,-34.73,135.87,300.82,3.54
506,Aksarka,16,RU,1584490199,83,66.56,67.8,263.21,7.17
507,Oyama,20,JP,1584490199,70,36.3,139.8,285.93,2.6
508,Jinchang,22,CN,1584490200,27,38.5,102.17,273.87,5.75
509,Autun,7,FR,1584490200,87,46.95,4.3,281.15,1.0
510,Arrondissement de Carcassonne,48,FR,1584490200,87,43.25,2.17,283.71,1.5
511,Zhuhai,40,CN,1584490200,73,22.28,113.57,295.37,4.1
512,Vasto,87,IT,1584490200,93,42.12,14.71,277.15,3.6
513,Winnemucca,40,US,1584490201,36,40.97,-117.74,280.15,5.7
514,Goderich,29,CA,1584489901,47,43.75,-81.72,277.04,0.89
515,Kidal,75,ML,1584490201,18,18.44,1.41,300.18,3.16
516,Līsakovsk,0,KZ,1584490201,89,52.54,62.49,266.2,5.23
517,Kalmar,60,SE,1584490022,87,56.66,16.36,280.93,4.1
518,Kabinda,100,CD,1584490202,93,-6.13,24.48,293.31,4.77
519,Sokoto,77,NG,1584490202,6,13.06,5.24,300.53,4.64
520,Coquimbo,20,CL,1584490026,82,-29.95,-71.34,289.15,4.1
521,Progreso,75,MX,1584490203,55,21.28,-89.67,303.15,7.7
522,Amagasaki,40,JP,1584490203,71,34.72,135.42,286.48,1.5
523,Luanda,20,AO,1584489800,83,-8.84,13.23,300.15,2.32
524,Novaya Ladoga,98,RU,1584490203,66,60.1,32.3,275.93,5.18
525,Lockhart,75,US,1584490203,65,28.62,-81.44,300.37,5.1
526,Sangmélima,100,CM,1584490204,91,2.93,11.98,294.57,1.39
527,Puerto Nariño,75,CO,1584490204,94,-3.77,-70.38,301.15,1.5
528,La Roche-sur-Yon,75,FR,1584490204,87,46.67,-1.43,285.15,1.73
529,San Quintín,45,MX,1584490204,55,30.48,-115.95,288.83,3.33
530,Spornoye,18,RU,1584490205,55,50.84,37.29,274.15,3.0
531,Pierre,90,US,1584490205,67,44.37,-100.35,278.15,8.2
532,Praia,75,CV,1584490205,68,14.92,-23.51,294.15,7.7
533,Bulgan,47,MN,1584490205,82,48.81,103.53,263.23,1.7
534,South Kazakhstan Region,79,KZ,1584490205,51,43.0,68.0,285.58,2.94
535,Kloulklubed,75,PW,1584490206,69,7.04,134.26,301.15,4.1
536,Onverwacht,40,SR,1584490206,74,5.58,-55.18,301.15,4.1
537,Tucuruí,91,BR,1584490206,92,-3.77,-49.67,297.55,1.31
538,Makakilo City,90,US,1584490206,94,21.35,-158.09,296.15,1.5
539,Tupik,100,RU,1584490207,90,54.43,119.93,267.29,1.43
540,Nishiwaki,75,JP,1584490207,93,34.98,134.97,287.04,1.0
541,Mayumba,100,GA,1584490207,84,-3.43,10.66,300.2,4.45
542,Panan,40,PH,1584490207,73,15.21,120.03,298.15,5.7
543,Yinchuan,0,CN,1584489962,20,38.47,106.27,279.32,3.48
544,Kawalu,70,ID,1584490208,87,-7.38,108.21,295.74,1.08
545,Galesong,20,ID,1584490208,83,-5.32,119.37,299.15,2.6
546,Heinola,90,FI,1584490208,93,61.21,26.04,276.48,5.1
